[
  {
    "id": "zona_florida",
    "name": "Complejo FCV - Foscal - Ardila - FOSUNAB",
    "centers": [
      {"name": "Clínica FOSCAL" ,"lat": 7.073498744079325, "lon": -73.11035947939119, "radius_m": 900},
      {"name": "Instituto Cardiovascular (ICV)","lat": 7.0729071175530205, "lon": -73.11017663607193, "radius_m": 900},
      {"name": "Centro Médico Carlos Ardila Lülle" ,"lat": 7.074504777569913, "lon": -73.11004196301784, "radius_m": 900},
      {"name": "Clínica FOSUNAB","lat": 7.071245824765605, "lon": -73.11341787605186, "radius_m": 900},
      {"name": "CASA - PRUEBA","lat": 7.059435376168042, "lon": -73.0946023646732, "radius_m": 900 }
    ],
    "hospitals": [
      "Clínica FOSCAL",
      "Instituto Cardiovascular (ICV)",
      "Centro Médico Carlos Ardila Lülle",
      "Clínica FOSUNAB",
      "CASA - PRUEBA"
    ]
  },
  {
    "id": "zona_buca",
    "name": "Hospital Universitario de Santander (HUS)",
    "centers": [
      {"name": "USTA - PRUEBA", "lat": 7.128220219332462, "lon": -73.11397306116474, "radius_m": 900},
      {"name": "Hospital Universitario de Santander (HUS)", "lat": 7.137167515579143, "lon": -73.12807670534494, "radius_m": 900}
    ],
    "hospitals": [
      "Hospital Universitario de Santander (HUS)",
      "USTA - PRUEBA"
    ]
  }
]
